<?xml version="1.0" encoding="utf-8"?>

<ArrayOfStation xmlns:xsi="http://www.w3.org/2001/XMLSchema-instance" xmlns:xsd="http://www.w3.org/2001/XMLSchema">

	-<Station>

		<Code>38831</Code>

		<Name>בי''ס בר לב/בן יהודה</Name>

		<Latitude>32.183921</Latitude>

		<Longitude>34.917806</Longitude>

	</Station>


	-<Station>

		<Code>38832</Code>

		<Name>הרצל/צומת בילו</Name>

		<Latitude>31.870034</Latitude>

		<Longitude>34.819541</Longitude>

	</Station>


	-<Station>

		<Code>38833</Code>

		<Name>הנחשול/הדייגים</Name>

		<Latitude>31.984553</Latitude>

		<Longitude>34.782828</Longitude>

	</Station>


	-<Station>

		<Code>38834</Code>

		<Name>פריד/ששת הימים</Name>

		<Latitude>31.88855</Latitude>

		<Longitude>34.790904</Longitude>

	</Station>


	-<Station>

		<Code>38836</Code>

		<Name>ת. מרכזית לוד/הורדה</Name>

		<Latitude>31.956392</Latitude>

		<Longitude>34.898098</Longitude>

	</Station>


	-<Station>

		<Code>38837</Code>

		<Name>חנה אברך/וולקני</Name>

		<Latitude>31.892166</Latitude>

		<Longitude>34.796071</Longitude>

	</Station>


	-<Station>

		<Code>38838</Code>

		<Name>הרצל/משה שרת</Name>

		<Latitude>31.857565</Latitude>

		<Longitude>34.824106</Longitude>

	</Station>


	-<Station>

		<Code>38839</Code>

		<Name>הבנים/אלי כהן</Name>

		<Latitude>31.862305</Latitude>

		<Longitude>34.821857</Longitude>

	</Station>


	-<Station>

		<Code>38840</Code>

		<Name>ויצמן/הבנים</Name>

		<Latitude>31.865085</Latitude>

		<Longitude>34.822237</Longitude>

	</Station>


	-<Station>

		<Code>38841</Code>

		<Name>האירוס/הכלנית</Name>

		<Latitude>31.865222</Latitude>

		<Longitude>34.818957</Longitude>

	</Station>


	-<Station>

		<Code>38842</Code>

		<Name>הכלנית/הנרקיס</Name>

		<Latitude>31.867597</Latitude>

		<Longitude>34.818392</Longitude>

	</Station>


	-<Station>

		<Code>38844</Code>

		<Name>אלי כהן/לוחמי הגטאות</Name>

		<Latitude>31.86244</Latitude>

		<Longitude>34.827023</Longitude>

	</Station>


	-<Station>

		<Code>38845</Code>

		<Name>שבזי/שבת אחים</Name>

		<Latitude>31.863501</Latitude>

		<Longitude>34.828702</Longitude>

	</Station>


	-<Station>

		<Code>38846</Code>

		<Name>שבזי/ויצמן</Name>

		<Latitude>31.865348</Latitude>

		<Longitude>34.827102</Longitude>

	</Station>


	-<Station>

		<Code>38847</Code>

		<Name>חיים בר לב/שדרות יצחק רבין</Name>

		<Latitude>31.977409</Latitude>

		<Longitude>34.763896</Longitude>

	</Station>


	-<Station>

		<Code>38848</Code>

		<Name>מרכז לבריאות הנפש לב השרון</Name>

		<Latitude>32.300345</Latitude>

		<Longitude>34.912708</Longitude>

	</Station>


	-<Station>

		<Code>38849</Code>

		<Name>מרכז לבריאות הנפש לב השרון</Name>

		<Latitude>32.301347</Latitude>

		<Longitude>34.912602</Longitude>

	</Station>


	-<Station>

		<Code>38852</Code>

		<Name>הולצמן/המדע</Name>

		<Latitude>31.914255</Latitude>

		<Longitude>34.807944</Longitude>

	</Station>


	-<Station>

		<Code>38854</Code>

		<Name>מחנה צריפין/מועדון</Name>

		<Latitude>31.963668</Latitude>

		<Longitude>34.836363</Longitude>

	</Station>


	-<Station>

		<Code>38855</Code>

		<Name>הרצל/גולני</Name>

		<Latitude>31.856115</Latitude>

		<Longitude>34.825249</Longitude>

	</Station>


	-<Station>

		<Code>38856</Code>

		<Name>הרותם/הדגניות</Name>

		<Latitude>31.874963</Latitude>

		<Longitude>34.81249</Longitude>

	</Station>


	-<Station>

		<Code>38859</Code>

		<Name>הערבה</Name>

		<Latitude>32.300035</Latitude>

		<Longitude>34.910842</Longitude>

	</Station>


	-<Station>

		<Code>38860</Code>

		<Name>מבוא הגפן/מורד התאנה</Name>

		<Latitude>32.305234</Latitude>

		<Longitude>34.948647</Longitude>

	</Station>


	-<Station>

		<Code>38861</Code>

		<Name>מבוא הגפן/ההרחבה</Name>

		<Latitude>32.304022</Latitude>

		<Longitude>34.943393</Longitude>

	</Station>


	-<Station>

		<Code>38862</Code>

		<Name>ההרחבה א</Name>

		<Latitude>32.302957</Latitude>

		<Longitude>34.940529</Longitude>

	</Station>


	-<Station>

		<Code>38863</Code>

		<Name>ההרחבה ב</Name>

		<Latitude>32.300264</Latitude>

		<Longitude>34.939512</Longitude>

	</Station>


	-<Station>

		<Code>38864</Code>

		<Name>ההרחבה/הותיקים</Name>

		<Latitude>32.298171</Latitude>

		<Longitude>34.938705</Longitude>

	</Station>


	-<Station>

		<Code>38865</Code>

		<Name>רשות שדות התעופה/העליה</Name>

		<Latitude>31.990876</Latitude>

		<Longitude>34.8976</Longitude>

	</Station>


	-<Station>

		<Code>38866</Code>

		<Name>כנף/ברוש</Name>

		<Latitude>31.998767</Latitude>

		<Longitude>34.879725</Longitude>

	</Station>


	-<Station>

		<Code>38867</Code>

		<Name>החבורה/דב הוז</Name>

		<Latitude>31.883019</Latitude>

		<Longitude>34.818708</Longitude>

	</Station>


	-<Station>

		<Code>38869</Code>

		<Name>בית הלוי ה</Name>

		<Latitude>32.349776</Latitude>

		<Longitude>34.926837</Longitude>

	</Station>


	-<Station>

		<Code>38870</Code>

		<Name>הראשונים/כביש 5700</Name>

		<Latitude>32.352953</Latitude>

		<Longitude>34.899465</Longitude>

	</Station>


	-<Station>

		<Code>38872</Code>

		<Name>הגאון בן איש חי/צאלון</Name>

		<Latitude>31.897286</Latitude>

		<Longitude>34.775083</Longitude>

	</Station>


	-<Station>

		<Code>38873</Code>

		<Name>עוקשי/לוי אשכול</Name>

		<Latitude>31.883941</Latitude>

		<Longitude>34.807039</Longitude>

	</Station>


	-<Station>

		<Code>38875</Code>

		<Name>מנוחה ונחלה/יהודה גורודיסקי</Name>

		<Latitude>31.896762</Latitude>

		<Longitude>34.816752</Longitude>

	</Station>


	-<Station>

		<Code>38876</Code>

		<Name>גורודסקי/יחיאל פלדי</Name>

		<Latitude>31.898463</Latitude>

		<Longitude>34.823461</Longitude>

	</Station>


	-<Station>

		<Code>38877</Code>

		<Name>דרך מנחם בגין/יעקב חזן</Name>

		<Latitude>32.076535</Latitude>

		<Longitude>34.904907</Longitude>

	</Station>


	-<Station>

		<Code>38878</Code>

		<Name>דרך הפארק/הרב נריה</Name>

		<Latitude>32.299994</Latitude>

		<Longitude>34.878765</Longitude>

	</Station>


	-<Station>

		<Code>38879</Code>

		<Name>התאנה/הגפן</Name>

		<Latitude>31.865457</Latitude>

		<Longitude>34.859437</Longitude>

	</Station>


	-<Station>

		<Code>38880</Code>

		<Name>התאנה/האלון</Name>

		<Latitude>31.866772</Latitude>

		<Longitude>34.864555</Longitude>

	</Station>


	-<Station>

		<Code>38881</Code>

		<Name>דרך הפרחים/יסמין</Name>

		<Latitude>31.809325</Latitude>

		<Longitude>34.784347</Longitude>

	</Station>


	-<Station>

		<Code>38883</Code>

		<Name>יצחק רבין/פנחס ספיר</Name>

		<Latitude>31.80037</Latitude>

		<Longitude>34.778239</Longitude>

	</Station>


	-<Station>

		<Code>38884</Code>

		<Name>מנחם בגין/יצחק רבין</Name>

		<Latitude>31.799224</Latitude>

		<Longitude>34.782985</Longitude>

	</Station>


	-<Station>

		<Code>38885</Code>

		<Name>חיים הרצוג/דולב</Name>

		<Latitude>31.800334</Latitude>

		<Longitude>34.785069</Longitude>

	</Station>


	-<Station>

		<Code>38886</Code>

		<Name>בית ספר גוונים/ארז</Name>

		<Latitude>31.802319</Latitude>

		<Longitude>34.786735</Longitude>

	</Station>


	-<Station>

		<Code>38887</Code>

		<Name>דרך האילנות/אלון</Name>

		<Latitude>31.804595</Latitude>

		<Longitude>34.786623</Longitude>

	</Station>


	-<Station>

		<Code>38888</Code>

		<Name>דרך האילנות/מנחם בגין</Name>

		<Latitude>31.805041</Latitude>

		<Longitude>34.785098</Longitude>

	</Station>


	-<Station>

		<Code>38889</Code>

		<Name>העצמאות/וייצמן</Name>

		<Latitude>31.816751</Latitude>

		<Longitude>34.782252</Longitude>

	</Station>


	-<Station>

		<Code>38890</Code>

		<Name>וייצמן/מרבד הקסמים</Name>

		<Latitude>31.816579</Latitude>

		<Longitude>34.779753</Longitude>

	</Station>


	-<Station>

		<Code>38891</Code>

		<Name>צאלה/אלמוג</Name>

		<Latitude>31.801182</Latitude>

		<Longitude>34.787199</Longitude>

	</Station>

</ArrayOfStation>